{
"type": "FeatureCollection",
"crs": { "type": "name", "properties": { "name": "urn:ogc:def:crs:OGC:1.3:CRS84" } },
                                                                                
"features": [
{ "type": "Feature", "properties": { "NOMBRE": "Correos", "MUNICIPIO": "Abla", "COD_MUN": "04001", "PROVINCIA": "Almería", "COD_ENT": "s33" }, "geometry": { "type": "Point", "coordinates": [ -2.78039585002613, 37.14147375789171 ] } },
{ "type": "Feature", "properties": { "NOMBRE": "Correos", "MUNICIPIO": "Adra", "COD_MUN": "04003", "PROVINCIA": "Almería", "COD_ENT": "s33" }, "geometry": { "type": "Point", "coordinates": [ -3.01834631929309, 36.748077584551723 ] } },
{ "type": "Feature", "properties": { "NOMBRE": "Correos", "MUNICIPIO": "Albánchez", "COD_MUN": "04004", "PROVINCIA": "Almería", "COD_ENT": "s33" }, "geometry": { "type": "Point", "coordinates": [ -2.180696318379996, 37.286968846780894 ] } },
{ "type": "Feature", "properties": { "NOMBRE": "Correos", "MUNICIPIO": "Albox", "COD_MUN": "04006", "PROVINCIA": "Almería", "COD_ENT": "s33" }, "geometry": { "type": "Point", "coordinates": [ -2.147343979244531, 37.387686010875825 ] } },
{ "type": "Feature", "properties": { "NOMBRE": "Almeria Suc 1. Ciudad Jardín", "MUNICIPIO": "Almería", "COD_MUN": "04013", "PROVINCIA": "Almería", "COD_ENT": "s33" }, "geometry": { "type": "Point", "coordinates": [ -2.453808042733872, 36.829938000186857 ] } },
{ "type": "Feature", "properties": { "NOMBRE": "Almeria Suc 2. Edificio Múltiple", "MUNICIPIO": "Almería", "COD_MUN": "04013", "PROVINCIA": "Almería", "COD_ENT": "s33" }, "geometry": { "type": "Point", "coordinates": [ -2.460987771026369, 36.835522577081512 ] } },
{ "type": "Feature", "properties": { "NOMBRE": "Almeria Suc 3. San Isidro", "MUNICIPIO": "Almería", "COD_MUN": "04013", "PROVINCIA": "Almería", "COD_ENT": "s33" }, "geometry": { "type": "Point", "coordinates": [ -2.452556373254044, 36.841080140990151 ] } },
{ "type": "Feature", "properties": { "NOMBRE": "Almeria Op", "MUNICIPIO": "Almería", "COD_MUN": "04013", "PROVINCIA": "Almería", "COD_ENT": "s33" }, "geometry": { "type": "Point", "coordinates": [ -2.454208427156943, 36.842661411425333 ] } },
{ "type": "Feature", "properties": { "NOMBRE": "Almeria Suc 6. Zona Norte", "MUNICIPIO": "Almería", "COD_MUN": "04013", "PROVINCIA": "Almería", "COD_ENT": "s33" }, "geometry": { "type": "Point", "coordinates": [ -2.443624223009234, 36.860425338870016 ] } },
{ "type": "Feature", "properties": { "NOMBRE": "Correos y Telégrafos", "MUNICIPIO": "Almería", "COD_MUN": "04013", "PROVINCIA": "Almería", "COD_ENT": "s33" }, "geometry": { "type": "Point", "coordinates": [ -2.464172699782215, 36.838933931356742 ] } },
{ "type": "Feature", "properties": { "NOMBRE": "Correos", "MUNICIPIO": "Bacares", "COD_MUN": "04019", "PROVINCIA": "Almería", "COD_ENT": "s33" }, "geometry": { "type": "Point", "coordinates": [ -2.454296937679608, 37.261882419878411 ] } },
{ "type": "Feature", "properties": { "NOMBRE": "Correos", "MUNICIPIO": "Benahadux", "COD_MUN": "04024", "PROVINCIA": "Almería", "COD_ENT": "s33" }, "geometry": { "type": "Point", "coordinates": [ -2.457280151252081, 36.925571128233742 ] } },
{ "type": "Feature", "properties": { "NOMBRE": "Correos", "MUNICIPIO": "Berja", "COD_MUN": "04029", "PROVINCIA": "Almería", "COD_ENT": "s33" }, "geometry": { "type": "Point", "coordinates": [ -2.949297056410114, 36.846304634180683 ] } },
{ "type": "Feature", "properties": { "NOMBRE": "Correos", "MUNICIPIO": "Canjáyar", "COD_MUN": "04030", "PROVINCIA": "Almería", "COD_ENT": "s33" }, "geometry": { "type": "Point", "coordinates": [ -2.740671093548491, 37.009234415624938 ] } },
{ "type": "Feature", "properties": { "NOMBRE": "Correos", "MUNICIPIO": "Cuevas del Almanzora", "COD_MUN": "04035", "PROVINCIA": "Almería", "COD_ENT": "s33" }, "geometry": { "type": "Point", "coordinates": [ -1.878046290830703, 37.297198589903132 ] } },
{ "type": "Feature", "properties": { "NOMBRE": "Correos", "MUNICIPIO": "Chercos", "COD_MUN": "04036", "PROVINCIA": "Almería", "COD_ENT": "s33" }, "geometry": { "type": "Point", "coordinates": [ -2.257474553690113, 37.266496129668901 ] } },
{ "type": "Feature", "properties": { "NOMBRE": "Correos", "MUNICIPIO": "Dalías", "COD_MUN": "04038", "PROVINCIA": "Almería", "COD_ENT": "s33" }, "geometry": { "type": "Point", "coordinates": [ -2.870453195253121, 36.821256847215409 ] } },
{ "type": "Feature", "properties": { "NOMBRE": "Correos", "MUNICIPIO": "Fines", "COD_MUN": "04044", "PROVINCIA": "Almería", "COD_ENT": "s33" }, "geometry": { "type": "Point", "coordinates": [ -2.263391937813652, 37.358872221453886 ] } },
{ "type": "Feature", "properties": { "NOMBRE": "Correos", "MUNICIPIO": "Fondón", "COD_MUN": "04046", "PROVINCIA": "Almería", "COD_ENT": "s33" }, "geometry": { "type": "Point", "coordinates": [ -2.859706597200526, 36.979694874475811 ] } },
{ "type": "Feature", "properties": { "NOMBRE": "Correos", "MUNICIPIO": "Gergal", "COD_MUN": "04050", "PROVINCIA": "Almería", "COD_ENT": "s33" }, "geometry": { "type": "Point", "coordinates": [ -2.541860302685194, 37.116970600659499 ] } },
{ "type": "Feature", "properties": { "NOMBRE": "Correos", "MUNICIPIO": "Laroya", "COD_MUN": "04056", "PROVINCIA": "Almería", "COD_ENT": "s33" }, "geometry": { "type": "Point", "coordinates": [ -2.33058021051124, 37.29675587644406 ] } },
{ "type": "Feature", "properties": { "NOMBRE": "Correos", "MUNICIPIO": "Laujar de Andarax", "COD_MUN": "04057", "PROVINCIA": "Almería", "COD_ENT": "s33" }, "geometry": { "type": "Point", "coordinates": [ -2.892914172882426, 36.993059694261753 ] } },
{ "type": "Feature", "properties": { "NOMBRE": "Correos", "MUNICIPIO": "Lubrín", "COD_MUN": "04059", "PROVINCIA": "Almería", "COD_ENT": "s33" }, "geometry": { "type": "Point", "coordinates": [ -2.066572708271156, 37.215887179209581 ] } },
{ "type": "Feature", "properties": { "NOMBRE": "Correos Telégrafos", "MUNICIPIO": "Macael", "COD_MUN": "04062", "PROVINCIA": "Almería", "COD_ENT": "s33" }, "geometry": { "type": "Point", "coordinates": [ -2.303605522004733, 37.334018221689064 ] } },
{ "type": "Feature", "properties": { "NOMBRE": "Correos", "MUNICIPIO": "Nacimiento", "COD_MUN": "04065", "PROVINCIA": "Almería", "COD_ENT": "s33" }, "geometry": { "type": "Point", "coordinates": [ -2.647477213242778, 37.105161757002911 ] } },
{ "type": "Feature", "properties": { "NOMBRE": "Correos", "MUNICIPIO": "Olula del Río", "COD_MUN": "04069", "PROVINCIA": "Almería", "COD_ENT": "s33" }, "geometry": { "type": "Point", "coordinates": [ -2.299011224609965, 37.356655093558544 ] } },
{ "type": "Feature", "properties": { "NOMBRE": "Correos", "MUNICIPIO": "Purchena", "COD_MUN": "04076", "PROVINCIA": "Almería", "COD_ENT": "s33" }, "geometry": { "type": "Point", "coordinates": [ -2.360598761166296, 37.346095593324904 ] } },
{ "type": "Feature", "properties": { "NOMBRE": "Correos", "MUNICIPIO": "Rioja", "COD_MUN": "04078", "PROVINCIA": "Almería", "COD_ENT": "s33" }, "geometry": { "type": "Point", "coordinates": [ -2.463184295192383, 36.944915059476955 ] } },
{ "type": "Feature", "properties": { "NOMBRE": "Correos", "MUNICIPIO": "Roquetas de Mar", "COD_MUN": "04079", "PROVINCIA": "Almería", "COD_ENT": "s33" }, "geometry": { "type": "Point", "coordinates": [ -2.596862514207622, 36.808148061103473 ] } },
{ "type": "Feature", "properties": { "NOMBRE": "Correos", "MUNICIPIO": "Santa Fe de Mondujar", "COD_MUN": "04081", "PROVINCIA": "Almería", "COD_ENT": "s33" }, "geometry": { "type": "Point", "coordinates": [ -2.531981950590604, 36.974034794801199 ] } },
{ "type": "Feature", "properties": { "NOMBRE": "Correos", "MUNICIPIO": "Serón", "COD_MUN": "04083", "PROVINCIA": "Almería", "COD_ENT": "s33" }, "geometry": { "type": "Point", "coordinates": [ -2.508923274696484, 37.343544618029235 ] } },
{ "type": "Feature", "properties": { "NOMBRE": "Correos", "MUNICIPIO": "Sierro", "COD_MUN": "04084", "PROVINCIA": "Almería", "COD_ENT": "s33" }, "geometry": { "type": "Point", "coordinates": [ -2.400499154038761, 37.320827493263174 ] } },
{ "type": "Feature", "properties": { "NOMBRE": "Correos", "MUNICIPIO": "Somontín", "COD_MUN": "04085", "PROVINCIA": "Almería", "COD_ENT": "s33" }, "geometry": { "type": "Point", "coordinates": [ -2.388642388647653, 37.391385725247872 ] } },
{ "type": "Feature", "properties": { "NOMBRE": "Correos", "MUNICIPIO": "Suflí", "COD_MUN": "04087", "PROVINCIA": "Almería", "COD_ENT": "s33" }, "geometry": { "type": "Point", "coordinates": [ -2.38713192750952, 37.338916737798371 ] } },
{ "type": "Feature", "properties": { "NOMBRE": "Correos", "MUNICIPIO": "Tabernas", "COD_MUN": "04088", "PROVINCIA": "Almería", "COD_ENT": "s33" }, "geometry": { "type": "Point", "coordinates": [ -2.391270514290064, 37.04980551433357 ] } },
{ "type": "Feature", "properties": { "NOMBRE": "Correos", "MUNICIPIO": "Tahal", "COD_MUN": "04090", "PROVINCIA": "Almería", "COD_ENT": "s33" }, "geometry": { "type": "Point", "coordinates": [ -2.284385951345613, 37.22811225723769 ] } },
{ "type": "Feature", "properties": { "NOMBRE": "Correos", "MUNICIPIO": "Terque", "COD_MUN": "04091", "PROVINCIA": "Almería", "COD_ENT": "s33" }, "geometry": { "type": "Point", "coordinates": [ -2.597391621130663, 36.984558882597312 ] } },
{ "type": "Feature", "properties": { "NOMBRE": "Correos y Telegrafos", "MUNICIPIO": "Tíjola", "COD_MUN": "04092", "PROVINCIA": "Almería", "COD_ENT": "s33" }, "geometry": { "type": "Point", "coordinates": [ -2.440293006823621, 37.345083152932951 ] } },
{ "type": "Feature", "properties": { "NOMBRE": "Correos", "MUNICIPIO": "Uleila del Campo", "COD_MUN": "04095", "PROVINCIA": "Almería", "COD_ENT": "s33" }, "geometry": { "type": "Point", "coordinates": [ -2.204165188784575, 37.184435670229668 ] } },
{ "type": "Feature", "properties": { "NOMBRE": "Correos", "MUNICIPIO": "Urrácal", "COD_MUN": "04096", "PROVINCIA": "Almería", "COD_ENT": "s33" }, "geometry": { "type": "Point", "coordinates": [ -2.364737388987984, 37.396820388593042 ] } },
{ "type": "Feature", "properties": { "NOMBRE": "Correos", "MUNICIPIO": "Vélez Blanco", "COD_MUN": "04098", "PROVINCIA": "Almería", "COD_ENT": "s33" }, "geometry": { "type": "Point", "coordinates": [ -2.096633765605626, 37.692254215170678 ] } },
{ "type": "Feature", "properties": { "NOMBRE": "Correos", "MUNICIPIO": "Vélez Rubio", "COD_MUN": "04099", "PROVINCIA": "Almería", "COD_ENT": "s33" }, "geometry": { "type": "Point", "coordinates": [ -2.075516242309341, 37.647867866081363 ] } },
{ "type": "Feature", "properties": { "NOMBRE": "Correos", "MUNICIPIO": "Viator", "COD_MUN": "04101", "PROVINCIA": "Almería", "COD_ENT": "s33" }, "geometry": { "type": "Point", "coordinates": [ -2.426675888649437, 36.889591197046762 ] } },
{ "type": "Feature", "properties": { "NOMBRE": "Correos", "MUNICIPIO": "Vícar", "COD_MUN": "04102", "PROVINCIA": "Almería", "COD_ENT": "s33" }, "geometry": { "type": "Point", "coordinates": [ -2.649006098474465, 36.79886161119947 ] } },
{ "type": "Feature", "properties": { "NOMBRE": "Correos", "MUNICIPIO": "El Ejido", "COD_MUN": "04902", "PROVINCIA": "Almería", "COD_ENT": "s33" }, "geometry": { "type": "Point", "coordinates": [ -2.815029691611837, 36.775321893817399 ] } },
{ "type": "Feature", "properties": { "NOMBRE": "Correos", "MUNICIPIO": "El Ejido", "COD_MUN": "04902", "PROVINCIA": "Almería", "COD_ENT": "s33" }, "geometry": { "type": "Point", "coordinates": [ -2.776405661212534, 36.783200199090111 ] } }
]
}
