{
"type": "FeatureCollection",
"crs": { "type": "name", "properties": { "name": "urn:ogc:def:crs:OGC:1.3:CRS84" } },
                                                                                
"features": [
{ "type": "Feature", "properties": { "NOMBRE": "Camping Mar Azul", "MUNICIPIO": "El Ejido", "COD_MUN": "04902", "PROVINCIA": "Almería", "COD_ENT": "s77" }, "geometry": { "type": "Point", "coordinates": [ -2.811302308915877, 36.709381675758273 ] } },
{ "type": "Feature", "properties": { "NOMBRE": "Camping Balerma Playa", "MUNICIPIO": "El Ejido", "COD_MUN": "04902", "PROVINCIA": "Almería", "COD_ENT": "s77" }, "geometry": { "type": "Point", "coordinates": [ -2.877638212037838, 36.722823234311903 ] } },
{ "type": "Feature", "properties": { "NOMBRE": "Camping La Habana", "MUNICIPIO": "Adra", "COD_MUN": "04003", "PROVINCIA": "Almería", "COD_ENT": "s77" }, "geometry": { "type": "Point", "coordinates": [ -2.965230309075971, 36.742458107566556 ] } },
{ "type": "Feature", "properties": { "NOMBRE": "Camping Las Vegas", "MUNICIPIO": "Adra", "COD_MUN": "04003", "PROVINCIA": "Almería", "COD_ENT": "s77" }, "geometry": { "type": "Point", "coordinates": [ -2.961893266959742, 36.743784949064256 ] } },
{ "type": "Feature", "properties": { "NOMBRE": "Camping Las Gaviotas", "MUNICIPIO": "Adra", "COD_MUN": "04003", "PROVINCIA": "Almería", "COD_ENT": "s77" }, "geometry": { "type": "Point", "coordinates": [ -3.041201092982069, 36.748235783538512 ] } },
{ "type": "Feature", "properties": { "NOMBRE": "Camping La Sirena Loca", "MUNICIPIO": "Adra", "COD_MUN": "04003", "PROVINCIA": "Almería", "COD_ENT": "s77" }, "geometry": { "type": "Point", "coordinates": [ -3.030233548081932, 36.748263806130055 ] } },
{ "type": "Feature", "properties": { "NOMBRE": "Camping Tau de San José", "MUNICIPIO": "Níjar", "COD_MUN": "04066", "PROVINCIA": "Almería", "COD_ENT": "s77" }, "geometry": { "type": "Point", "coordinates": [ -2.105179330439852, 36.767629778776566 ] } },
{ "type": "Feature", "properties": { "NOMBRE": "Camping Roquetas", "MUNICIPIO": "Roquetas de Mar", "COD_MUN": "04079", "PROVINCIA": "Almería", "COD_ENT": "s77" }, "geometry": { "type": "Point", "coordinates": [ -2.590034330797559, 36.795984041169852 ] } },
{ "type": "Feature", "properties": { "NOMBRE": "Albergue-campamento Juvenil de Aguadulce", "MUNICIPIO": "Roquetas de Mar", "COD_MUN": "04079", "PROVINCIA": "Almería", "COD_ENT": "s75" }, "geometry": { "type": "Point", "coordinates": [ -2.581613097711475, 36.799732876827697 ] } },
{ "type": "Feature", "properties": { "NOMBRE": "Camping Cabo de Gata", "MUNICIPIO": "Almería", "COD_MUN": "04013", "PROVINCIA": "Almería", "COD_ENT": "s77" }, "geometry": { "type": "Point", "coordinates": [ -2.245350999626605, 36.801106298490268 ] } },
{ "type": "Feature", "properties": { "NOMBRE": "Camping Bungalows Los Escullos-San José", "MUNICIPIO": "Níjar", "COD_MUN": "04066", "PROVINCIA": "Almería", "COD_ENT": "s77" }, "geometry": { "type": "Point", "coordinates": [ -2.07869911536235, 36.802922838079155 ] } },
{ "type": "Feature", "properties": { "NOMBRE": "Camping La Garrofa", "MUNICIPIO": "Almería", "COD_MUN": "04013", "PROVINCIA": "Almería", "COD_ENT": "s77" }, "geometry": { "type": "Point", "coordinates": [ -2.516143149758971, 36.825787613199026 ] } },
{ "type": "Feature", "properties": { "NOMBRE": "Albergue Juvenil de Almería", "MUNICIPIO": "Almería", "COD_MUN": "04013", "PROVINCIA": "Almería", "COD_ENT": "s75" }, "geometry": { "type": "Point", "coordinates": [ -2.441795258900658, 36.840813231744143 ] } },
{ "type": "Feature", "properties": { "NOMBRE": "Área de Acampada Rodalquilar", "MUNICIPIO": "Níjar", "COD_MUN": "04066", "PROVINCIA": "Almería", "COD_ENT": "s75" }, "geometry": { "type": "Point", "coordinates": [ -2.043855058337829, 36.848581019083134 ] } },
{ "type": "Feature", "properties": { "NOMBRE": "Camping Bungalows Náutico La Caleta", "MUNICIPIO": "Níjar", "COD_MUN": "04066", "PROVINCIA": "Almería", "COD_ENT": "s77" }, "geometry": { "type": "Point", "coordinates": [ -2.006847222864673, 36.872151536008793 ] } },
{ "type": "Feature", "properties": { "NOMBRE": "Balneario de Sierra Alhamilla", "MUNICIPIO": "Pechina", "COD_MUN": "04074", "PROVINCIA": "Almería", "COD_ENT": "s76" }, "geometry": { "type": "Point", "coordinates": [ -2.429406009957611, 36.919392152769042 ] } },
{ "type": "Feature", "properties": { "NOMBRE": "Balneario de San Nicolás", "MUNICIPIO": "Alhama de Almería", "COD_MUN": "04011", "PROVINCIA": "Almería", "COD_ENT": "s76" }, "geometry": { "type": "Point", "coordinates": [ -2.57242344684687, 36.960890562000749 ] } },
{ "type": "Feature", "properties": { "NOMBRE": "Camping Puente Colgante", "MUNICIPIO": "Fondón", "COD_MUN": "04046", "PROVINCIA": "Almería", "COD_ENT": "s77" }, "geometry": { "type": "Point", "coordinates": [ -2.858514294116347, 36.984988091667198 ] } },
{ "type": "Feature", "properties": { "NOMBRE": "Villa Turística de Laújar de Andarax", "MUNICIPIO": "Laujar de Andarax", "COD_MUN": "04057", "PROVINCIA": "Almería", "COD_ENT": "s79" }, "geometry": { "type": "Point", "coordinates": [ -2.880981348842524, 36.994406406969837 ] } },
{ "type": "Feature", "properties": { "NOMBRE": "Camping La Molineta", "MUNICIPIO": "Laujar de Andarax", "COD_MUN": "04057", "PROVINCIA": "Almería", "COD_ENT": "s77" }, "geometry": { "type": "Point", "coordinates": [ -2.887396141583776, 36.995603489699157 ] } },
{ "type": "Feature", "properties": { "NOMBRE": "Camping Sopalmo", "MUNICIPIO": "Mojácar", "COD_MUN": "04064", "PROVINCIA": "Almería", "COD_ENT": "s77" }, "geometry": { "type": "Point", "coordinates": [ -1.880292181767671, 37.057507280110684 ] } },
{ "type": "Feature", "properties": { "NOMBRE": "Camping El Cantal de Mojacar", "MUNICIPIO": "Mojácar", "COD_MUN": "04064", "PROVINCIA": "Almería", "COD_ENT": "s77" }, "geometry": { "type": "Point", "coordinates": [ -1.833430105508501, 37.125587335486813 ] } },
{ "type": "Feature", "properties": { "NOMBRE": "Parador de Mojácar", "MUNICIPIO": "Mojácar", "COD_MUN": "04064", "PROVINCIA": "Almería", "COD_ENT": "s78" }, "geometry": { "type": "Point", "coordinates": [ -1.83130600126332, 37.131943979852203 ] } },
{ "type": "Feature", "properties": { "NOMBRE": "Camping El Quinto", "MUNICIPIO": "Mojácar", "COD_MUN": "04064", "PROVINCIA": "Almería", "COD_ENT": "s77" }, "geometry": { "type": "Point", "coordinates": [ -1.858769370263718, 37.140618181332783 ] } },
{ "type": "Feature", "properties": { "NOMBRE": "Camping Los Gallardos", "MUNICIPIO": "Los Gallardos", "COD_MUN": "04048", "PROVINCIA": "Almería", "COD_ENT": "s77" }, "geometry": { "type": "Point", "coordinates": [ -1.925051332895092, 37.165538258133509 ] } },
{ "type": "Feature", "properties": { "NOMBRE": "Camping Almanzora", "MUNICIPIO": "Vera", "COD_MUN": "04100", "PROVINCIA": "Almería", "COD_ENT": "s77" }, "geometry": { "type": "Point", "coordinates": [ -1.801443578496253, 37.228288972245089 ] } },
{ "type": "Feature", "properties": { "NOMBRE": "Camping Bungalows Cuevas Mar", "MUNICIPIO": "Cuevas del Almanzora", "COD_MUN": "04035", "PROVINCIA": "Almería", "COD_ENT": "s77" }, "geometry": { "type": "Point", "coordinates": [ -1.798436559126009, 37.237418544337821 ] } },
{ "type": "Feature", "properties": { "NOMBRE": "Camping-Cortijo Los Riblancos", "MUNICIPIO": "Cóbdar", "COD_MUN": "04034", "PROVINCIA": "Almería", "COD_ENT": "s77" }, "geometry": { "type": "Point", "coordinates": [ -2.20870941660531, 37.260486619648361 ] } },
{ "type": "Feature", "properties": { "NOMBRE": "Camping Las Rozas", "MUNICIPIO": "Cuevas del Almanzora", "COD_MUN": "04035", "PROVINCIA": "Almería", "COD_ENT": "s77" }, "geometry": { "type": "Point", "coordinates": [ -1.793139206128205, 37.265669449134101 ] } },
{ "type": "Feature", "properties": { "NOMBRE": "Camping La Menas", "MUNICIPIO": "Serón", "COD_MUN": "04083", "PROVINCIA": "Almería", "COD_ENT": "s77" }, "geometry": { "type": "Point", "coordinates": [ -2.509713118512796, 37.282820843489553 ] } },
{ "type": "Feature", "properties": { "NOMBRE": "Camping La Hierbabuena", "MUNICIPIO": "Cuevas del Almanzora", "COD_MUN": "04035", "PROVINCIA": "Almería", "COD_ENT": "s77" }, "geometry": { "type": "Point", "coordinates": [ -1.777230603319607, 37.30110056064121 ] } },
{ "type": "Feature", "properties": { "NOMBRE": "Camping La Tala", "MUNICIPIO": "Chirivel", "COD_MUN": "04037", "PROVINCIA": "Almería", "COD_ENT": "s77" }, "geometry": { "type": "Point", "coordinates": [ -2.344659568020568, 37.578916246889442 ] } },
{ "type": "Feature", "properties": { "NOMBRE": "Camping Pinar del Rey", "MUNICIPIO": "Vélez Blanco", "COD_MUN": "04098", "PROVINCIA": "Almería", "COD_ENT": "s77" }, "geometry": { "type": "Point", "coordinates": [ -2.0848328200662, 37.681048891128341 ] } },
{ "type": "Feature", "properties": { "NOMBRE": "Camping Sierra Maria", "MUNICIPIO": "María", "COD_MUN": "04063", "PROVINCIA": "Almería", "COD_ENT": "s77" }, "geometry": { "type": "Point", "coordinates": [ -2.244745771498249, 37.705914286983123 ] } }
]
}
